[
{"id":"1","name":"Destin Shines","creator_id":"12","itunes_app_id":"","facebook_app_id":"107352225952816","android_app_id":"","partner_category_id":"1","phone_number":"","website_url":"http:\/\/www.destinshines.com","image":"\/media\/com_townwizard\/images\/partners\/4f88571b9a1e0.png","published":"1","priority":"0","ordering":"121","featured_partner":"0","category":"Towns","locations":[{"id":"1","partner_id":"1","street":"981 Highway 98","city":"Destin","state":"Florida","country":"USA","zip":"32541","latitude":"30.389959000000001","longitude":"-86.477659000000017","map_zoom":"11","partner":"Destin Shines"}]},
{"id":"3","name":"Fort Morgan","creator_id":"62","itunes_app_id":"443047888","facebook_app_id":"346995245338206","android_app_id":"","partner_category_id":"1","phone_number":"","website_url":"http:\/\/www.morgannow.com","image":"","published":"1","priority":"0","ordering":"124","featured_partner":"0","category":"Towns","locations":[{"id":"3","partner_id":"3","street":"","city":"Fort Morgan","state":"CO","country":"USA","zip":"80701","latitude":"40.250258199999998","longitude":"-103.799950899999999","map_zoom":"8","partner":"Fort Morgan"}]},
{"id":"6","name":"30A","creator_id":"63","itunes_app_id":"307706936","facebook_app_id":"346995245338206","android_app_id":"com.app30a","partner_category_id":"1","phone_number":"","website_url":"http:\/\/www.30a.com","image":"","published":"1","priority":"0","ordering":"127","featured_partner":"0","category":"Towns","locations":[{"id":"6","partner_id":"6","street":"2236 East County Hwy 30a","city":"Santa Rosa Beach","state":"Florida","country":"USA","zip":"32459","latitude":"30.319581599999999","longitude":"-86.138119700000004","map_zoom":"8","partner":"30A"}]},
{"id":"8","name":"Forsyth Shines","creator_id":"62","itunes_app_id":"434841107","facebook_app_id":"346995245338206","android_app_id":"","partner_category_id":"1","phone_number":"","website_url":"http:\/\/www.forsythshines.com","image":"","published":"1","priority":"0","ordering":"122","featured_partner":"0","category":"Towns","locations":[{"id":"9","partner_id":"8","street":"","city":"Cumming","state":"GA","country":"USA","zip":"30040","latitude":"34.207319599999998","longitude":"-84.140192599999978","map_zoom":"8","partner":"Forsyth Shines"}]},
{"id":"11","name":"MemphisPop","creator_id":"62","itunes_app_id":"434831921","facebook_app_id":"346995245338206","android_app_id":"","partner_category_id":"1","phone_number":"","website_url":"http:\/\/www.memphispop.com","image":"","published":"1","priority":"0","ordering":"118","featured_partner":"0","category":"Towns","locations":[{"id":"13","partner_id":"11","street":"","city":"Memphis","state":"TN","country":"USA","zip":"38103","latitude":"35.154363199999999","longitude":"-90.060663699999964","map_zoom":"8","partner":"MemphisPop"}]},
{"id":"12","name":"TownWizardApps","creator_id":"62","itunes_app_id":"","facebook_app_id":"107352225952816","android_app_id":"","partner_category_id":"1","phone_number":"","website_url":"http:\/\/www.townwizardapps.com","image":"\/media\/com_townwizard\/images\/partners\/4f3bc2f4bedd9.png","published":"1","priority":"0","ordering":"117","featured_partner":"0","category":"Towns","locations":[{"id":"18","partner_id":"12","street":"","city":"Charlotte","state":"North Carolina","country":"USA","zip":"28206","latitude":"35.255715899999998","longitude":"-80.826706399999978","map_zoom":"8","partner":"TownWizardApps"}]},
{"id":"13","name":"Test Partner","creator_id":"63","itunes_app_id":"","facebook_app_id":"346995245338206","android_app_id":"","partner_category_id":"1","phone_number":"","website_url":"http:\/\/www.townwizardapps.com","image":"\/media\/com_townwizard\/images\/partners\/4f3c1a2cd17e7.png","published":"1","priority":"0","ordering":"116","featured_partner":"0","category":"Towns","locations":[]},
{"id":"15","name":"Camden County Cool","creator_id":"62","itunes_app_id":"","facebook_app_id":"346995245338206","android_app_id":"","partner_category_id":"1","phone_number":"","website_url":"http:\/\/www.camdencountycool.com","image":"","published":"1","priority":"0","ordering":"114","featured_partner":"0","category":"Towns","locations":[{"id":"20","partner_id":"15","street":"","city":"Collingswood","state":"New Jersey","country":"USA","zip":"08108","latitude":"-25.363882000000000","longitude":"131.044922000000042","map_zoom":"8","partner":"Camden County Cool"}]},
{"id":"16","name":"Hello St. Albert","creator_id":"62","itunes_app_id":"","facebook_app_id":"316998761658640","android_app_id":"","partner_category_id":"1","phone_number":"","website_url":"http:\/\/www.hellostalbert.com","image":"","published":"1","priority":"0","ordering":"113","featured_partner":"0","category":"Towns","locations":[{"id":"21","partner_id":"16","street":"","city":"St Albert","state":"","country":"Canada","zip":"T8N","latitude":"53.630475300000001","longitude":"-113.625641999999971","map_zoom":"8","partner":"Hello St. Albert"}]},
{"id":"17","name":"Hello Sherwood Park","creator_id":"62","itunes_app_id":"","facebook_app_id":"346995245338206","android_app_id":"","partner_category_id":"1","phone_number":"","website_url":"http:\/\/www.hellosherwoodpark.com","image":"","published":"1","priority":"0","ordering":"112","featured_partner":"0","category":"Towns","locations":[{"id":"22","partner_id":"17","street":"","city":"Sherwood Park","state":"","country":"Canada","zip":"","latitude":"53.523319000000008","longitude":"-113.308756000000017","map_zoom":"8","partner":"Hello Sherwood Park"}]},
{"id":"18","name":"SETX Connect","creator_id":"62","itunes_app_id":"","facebook_app_id":"346995245338206","android_app_id":"","partner_category_id":"1","phone_number":"","website_url":"http:\/\/www.setxconnect.com\/","image":"\/media\/com_townwizard\/images\/partners\/4f4269d98332d.png","published":"1","priority":"0","ordering":"111","featured_partner":"0","category":"Towns","locations":[{"id":"23","partner_id":"18","street":"","city":"Orange","state":"Texas","country":"USA","zip":"77630","latitude":"30.079801400000001","longitude":"-93.845173100000011","map_zoom":"8","partner":"SETX Connect"}]},
{"id":"20","name":"Pensacola","creator_id":"62","itunes_app_id":"435815844","facebook_app_id":"346995245338206","android_app_id":"","partner_category_id":"1","phone_number":"","website_url":"http:\/\/www.pcola.com","image":"","published":"1","priority":"0","ordering":"109","featured_partner":"0","category":"Towns","locations":[{"id":"25","partner_id":"20","street":"","city":"Pensacola","state":"Florida","country":"USA","zip":"","latitude":"30.421308999999990","longitude":"-87.216914900000006","map_zoom":"8","partner":"Pensacola"}]},
{"id":"21","name":"Panama City Beach","creator_id":"62","itunes_app_id":"369901387","facebook_app_id":"346995245338206","android_app_id":"","partner_category_id":"1","phone_number":"","website_url":"http:\/\/www.panamacity.com","image":"","published":"1","priority":"0","ordering":"108","featured_partner":"0","category":"Towns","locations":[{"id":"26","partner_id":"21","street":"","city":"Panama City Beach","state":"Florida","country":"USA","zip":"","latitude":"30.176591400000000","longitude":"-85.805487900000003","map_zoom":"8","partner":"Panama City Beach"}]},
{"id":"22","name":"Lafayette Venue","creator_id":"62","itunes_app_id":"435760905","facebook_app_id":"346995245338206","android_app_id":"","partner_category_id":"1","phone_number":"","website_url":"http:\/\/www.lafayettevenue.com","image":"","published":"1","priority":"0","ordering":"107","featured_partner":"0","category":"Towns","locations":[{"id":"27","partner_id":"22","street":"","city":"Lafayette","state":"Louisiana","country":"USA","zip":"","latitude":"30.224089700000000","longitude":"-92.019842700000027","map_zoom":"8","partner":"Lafayette Venue"}]},
{"id":"23","name":"VB Compass","creator_id":"62","itunes_app_id":"437820388","facebook_app_id":"346995245338206","android_app_id":"","partner_category_id":"1","phone_number":"","website_url":"http:\/\/www.vbcompass.com","image":"","published":"1","priority":"0","ordering":"106","featured_partner":"0","category":"Towns","locations":[{"id":"28","partner_id":"23","street":"","city":"Virginia Beach","state":"Virginia","country":"USA","zip":"23454","latitude":"36.852926300000000","longitude":"-75.977984999999990","map_zoom":"8","partner":"VB Compass"}]},
{"id":"24","name":"Baton Rouge Venue","creator_id":"62","itunes_app_id":"389348641","facebook_app_id":"346995245338206","android_app_id":"","partner_category_id":"1","phone_number":"","website_url":"http:\/\/www.batonrougevenue.com","image":"","published":"1","priority":"0","ordering":"105","featured_partner":"0","category":"Towns","locations":[{"id":"29","partner_id":"24","street":"","city":"Baton Rouge","state":"Louisiana","country":"USA","zip":"70801","latitude":"30.448377900000001","longitude":"-91.188708000000020","map_zoom":"8","partner":"Baton Rouge Venue"}]},
{"id":"25","name":"Holland Scout","creator_id":"62","itunes_app_id":"499258415","facebook_app_id":"346995245338206","android_app_id":"","partner_category_id":"2","phone_number":"","website_url":"http:\/\/www.hollandscout.com","image":"","published":"1","priority":"0","ordering":"104","featured_partner":"0","category":"Resorts","locations":[{"id":"30","partner_id":"25","street":"","city":"Holland","state":"Michigan","country":"USA","zip":"49423","latitude":"42.787523499999999","longitude":"-86.108930100000009","map_zoom":"8","partner":"Holland Scout"}]},
{"id":"26","name":"LexVibe","creator_id":"12","itunes_app_id":"423620302","facebook_app_id":"346995245338206","android_app_id":"","partner_category_id":"1","phone_number":"","website_url":"http:\/\/lexvibe.com\/","image":"","published":"1","priority":"0","ordering":"103","featured_partner":"0","category":"Towns","locations":[{"id":"31","partner_id":"26","street":"","city":"Lexington","state":"KY","country":"USA","zip":"40507","latitude":"38.046818799999997","longitude":"-84.494687099999965","map_zoom":"8","partner":"LexVibe"}]},
{"id":"27","name":"Visit Branson","creator_id":"12","itunes_app_id":"417598410","facebook_app_id":"346995245338206","android_app_id":"","partner_category_id":"1","phone_number":"","website_url":"http:\/\/visitbransonusa.com\/","image":"","published":"1","priority":"0","ordering":"102","featured_partner":"0","category":"Towns","locations":[{"id":"32","partner_id":"27","street":"","city":"Branson","state":"MO","country":"USA","zip":"65616","latitude":"36.643673100000001","longitude":"-93.218514400000004","map_zoom":"8","partner":"Visit Branson"}]},
{"id":"28","name":"802theApp","creator_id":"12","itunes_app_id":"413146569","facebook_app_id":"346995245338206","android_app_id":"","partner_category_id":"1","phone_number":"","website_url":"http:\/\/802theapp.com\/","image":"","published":"1","priority":"0","ordering":"101","featured_partner":"0","category":"Towns","locations":[{"id":"33","partner_id":"28","street":"","city":"Burlington","state":"VT","country":"USA","zip":"05401","latitude":"44.477602200000000","longitude":"-73.222445800000003","map_zoom":"8","partner":"802theApp"}]},
{"id":"29","name":"Lake Mary Buzz","creator_id":"12","itunes_app_id":"411680240","facebook_app_id":"346995245338206","android_app_id":"","partner_category_id":"1","phone_number":"","website_url":"http:\/\/lakemarybuzz.com\/","image":"","published":"1","priority":"0","ordering":"100","featured_partner":"0","category":"Towns","locations":[{"id":"34","partner_id":"29","street":"","city":"Lake Mary","state":"FL","country":"USA","zip":"32746","latitude":"28.758883300000001","longitude":"-81.317844600000001","map_zoom":"8","partner":"Lake Mary Buzz"}]},
{"id":"30","name":"Austin Itch","creator_id":"12","itunes_app_id":"443059098","facebook_app_id":"346995245338206","android_app_id":"","partner_category_id":"1","phone_number":"","website_url":"http:\/\/austinitch.com\/","image":"","published":"1","priority":"0","ordering":"99","featured_partner":"0","category":"Towns","locations":[{"id":"35","partner_id":"30","street":"","city":"Austin","state":"TX","country":"USA","zip":"78701","latitude":"30.272920899999999","longitude":"-97.744386300000031","map_zoom":"8","partner":"Austin Itch"}]},
{"id":"31","name":"Morgan Now","creator_id":"12","itunes_app_id":"443047888","facebook_app_id":"346995245338206","android_app_id":"","partner_category_id":"1","phone_number":"","website_url":"http:\/\/morgannow.com\/","image":"","published":"1","priority":"0","ordering":"98","featured_partner":"0","category":"Towns","locations":[]},
{"id":"32","name":"Santa Fe WOW","creator_id":"12","itunes_app_id":"432911609","facebook_app_id":"346995245338206","android_app_id":"","partner_category_id":"1","phone_number":"","website_url":"http:\/\/www.santafewow.com\/","image":"","published":"1","priority":"0","ordering":"97","featured_partner":"0","category":"Towns","locations":[{"id":"37","partner_id":"32","street":"","city":"Santa Fe","state":"NM","country":"USA","zip":"87501","latitude":"35.686975199999999","longitude":"-105.937798999999984","map_zoom":"8","partner":"Santa Fe WOW"}]},
{"id":"34","name":"Loudoun360","creator_id":"12","itunes_app_id":"433724733","facebook_app_id":"346995245338206","android_app_id":"","partner_category_id":"1","phone_number":"","website_url":"http:\/\/loudoun360.com\/","image":"","published":"1","priority":"0","ordering":"95","featured_partner":"0","category":"Towns","locations":[{"id":"39","partner_id":"34","street":"","city":"Loudoun County","state":"VA","country":"USA","zip":"20175","latitude":"39.048857400000003","longitude":"-77.584866499999976","map_zoom":"8","partner":"Loudoun360"}]},
{"id":"35","name":"Birmingham Hot","creator_id":"12","itunes_app_id":"373965978","facebook_app_id":"346995245338206","android_app_id":"","partner_category_id":"1","phone_number":"","website_url":"http:\/\/birminghamhot.com\/","image":"","published":"1","priority":"0","ordering":"94","featured_partner":"0","category":"Towns","locations":[{"id":"40","partner_id":"35","street":"","city":"Birmingham","state":"West Midlands","country":"UK","zip":"USAL0054","latitude":"52.486242999999988","longitude":"-1.890400999999997","map_zoom":"8","partner":"Birmingham Hot"}]},
{"id":"36","name":"Cullman Life","creator_id":"12","itunes_app_id":"427040681","facebook_app_id":"346995245338206","android_app_id":"","partner_category_id":"1","phone_number":"","website_url":"http:\/\/cullmanlife.com\/","image":"","published":"1","priority":"0","ordering":"93","featured_partner":"0","category":"Towns","locations":[{"id":"41","partner_id":"36","street":"","city":"Cullman","state":"AL","country":"USA","zip":"35055","latitude":"34.174820799999999","longitude":"-86.843612399999984","map_zoom":"8","partner":"Cullman Life"}]},
{"id":"37","name":"KissimmeeSpotlight","creator_id":"12","itunes_app_id":"425743527","facebook_app_id":"346995245338206","android_app_id":"","partner_category_id":"1","phone_number":"","website_url":"http:\/\/kissimmeespotlight.com\/","image":"","published":"1","priority":"0","ordering":"92","featured_partner":"0","category":"Towns","locations":[{"id":"42","partner_id":"37","street":"","city":"Kissimmee","state":"FL","country":"USA","zip":"34741","latitude":"28.304086099999999","longitude":"-81.422404000000029","map_zoom":"8","partner":"KissimmeeSpotlight"}]},
{"id":"38","name":"Lake Tahoe\\'s Alive","creator_id":"12","itunes_app_id":"448004032","facebook_app_id":"346995245338206","android_app_id":"","partner_category_id":"1","phone_number":"","website_url":"http:\/\/laketahoesalive.com\/","image":"","published":"1","priority":"0","ordering":"91","featured_partner":"0","category":"Towns","locations":[{"id":"43","partner_id":"38","street":"","city":"South Lake Tahoe","state":"CA","country":"USA","zip":"96150","latitude":"38.933241000000002","longitude":"-119.984348199999999","map_zoom":"8","partner":"Lake Tahoe\\'s Alive"}]},
{"id":"39","name":"PaducahShines","creator_id":"12","itunes_app_id":"423645070","facebook_app_id":"346995245338206","android_app_id":"","partner_category_id":"1","phone_number":"","website_url":"http:\/\/paducahshines.com\/","image":"","published":"1","priority":"0","ordering":"90","featured_partner":"0","category":"Towns","locations":[{"id":"44","partner_id":"39","street":"","city":"Paducah","state":"KY","country":"USA","zip":"42001","latitude":"37.083389300000000","longitude":"-88.600047799999970","map_zoom":"8","partner":"PaducahShines"}]},
{"id":"40","name":"PortlandVibe","creator_id":"12","itunes_app_id":"425216207","facebook_app_id":"346995245338206","android_app_id":"","partner_category_id":"1","phone_number":"","website_url":"http:\/\/portlandvibe.com\/","image":"","published":"1","priority":"0","ordering":"89","featured_partner":"0","category":"Towns","locations":[{"id":"45","partner_id":"40","street":"","city":"Portland","state":"OR","country":"USA","zip":"04101","latitude":"43.662996399999997","longitude":"-70.256877499999973","map_zoom":"8","partner":"PortlandVibe"}]},
{"id":"41","name":"LittleRockToDo","creator_id":"12","itunes_app_id":"425185803","facebook_app_id":"346995245338206","android_app_id":"","partner_category_id":"1","phone_number":"","website_url":"http:\/\/littlerocktodo.com\/","image":"","published":"1","priority":"0","ordering":"88","featured_partner":"0","category":"Towns","locations":[{"id":"46","partner_id":"41","street":"","city":"Little Rock","state":"AR","country":"USA","zip":"72207","latitude":"34.779166900000000","longitude":"-92.346819499999981","map_zoom":"8","partner":"LittleRockToDo"}]},
{"id":"42","name":"DowntownDiego","creator_id":"12","itunes_app_id":"421028666","facebook_app_id":"346995245338206","android_app_id":"","partner_category_id":"1","phone_number":"","website_url":"http:\/\/downtowndiego.com\/","image":"","published":"1","priority":"0","ordering":"87","featured_partner":"0","category":"Towns","locations":[{"id":"47","partner_id":"42","street":"","city":"San Diego","state":"CA","country":"USA","zip":"92101","latitude":"32.726966900000001","longitude":"-117.164709399999992","map_zoom":"8","partner":"DowntownDiego"}]},
{"id":"43","name":"SavannahWise","creator_id":"12","itunes_app_id":"420800098","facebook_app_id":"346995245338206","android_app_id":"","partner_category_id":"1","phone_number":"","website_url":"http:\/\/savannahwise.com\/","image":"","published":"1","priority":"0","ordering":"86","featured_partner":"0","category":"Towns","locations":[{"id":"48","partner_id":"43","street":"","city":"Savannah","state":"GA","country":"USA","zip":"31405","latitude":"32.037113699999999","longitude":"-81.174749799999972","map_zoom":"8","partner":"SavannahWise"}]},
{"id":"44","name":"Cedar Valley Hotspots","creator_id":"12","itunes_app_id":"413154138","facebook_app_id":"346995245338206","android_app_id":"","partner_category_id":"1","phone_number":"","website_url":"http:\/\/cedarvalleyhotspots.com\/","image":"","published":"1","priority":"0","ordering":"85","featured_partner":"0","category":"Towns","locations":[{"id":"49","partner_id":"44","street":"","city":"Cedar Valley","state":"OH","country":"USA","zip":"50701","latitude":"41.594513599999999","longitude":"-83.432871699999964","map_zoom":"8","partner":"Cedar Valley Hotspots"}]},
{"id":"45","name":"HotDenham","creator_id":"12","itunes_app_id":"413501758","facebook_app_id":"346995245338206","android_app_id":"","partner_category_id":"1","phone_number":"","website_url":"http:\/\/hotdenham.com\/","image":"","published":"1","priority":"0","ordering":"84","featured_partner":"0","category":"Towns","locations":[{"id":"50","partner_id":"45","street":"","city":"Denham Springs","state":"LA","country":"USA","zip":"70726","latitude":"30.486856399999990","longitude":"-90.956212499999992","map_zoom":"8","partner":"HotDenham"}]},
{"id":"46","name":"Napa Vibes","creator_id":"12","itunes_app_id":"414053977","facebook_app_id":"346995245338206","android_app_id":"","partner_category_id":"1","phone_number":"","website_url":"http:\/\/napavibes.com\/","image":"","published":"1","priority":"0","ordering":"83","featured_partner":"0","category":"Towns","locations":[{"id":"51","partner_id":"46","street":"","city":"Napa Valley","state":"CA","country":"USA","zip":"94558","latitude":"38.259360000000001","longitude":"-122.288862300000005","map_zoom":"8","partner":"Napa Vibes"}]},
{"id":"47","name":"MidtownHot","creator_id":"12","itunes_app_id":"409822364","facebook_app_id":"346995245338206","android_app_id":"","partner_category_id":"1","phone_number":"","website_url":"http:\/\/midtownhot.com\/","image":"","published":"1","priority":"0","ordering":"82","featured_partner":"0","category":"Towns","locations":[{"id":"52","partner_id":"47","street":"","city":"Atlanta","state":"GA","country":"USA","zip":"USGA0028","latitude":"33.748995399999998","longitude":"-84.387982399999999","map_zoom":"8","partner":"MidtownHot"}]},
{"id":"48","name":"DishOmaha","creator_id":"12","itunes_app_id":"409807810","facebook_app_id":"346995245338206","android_app_id":"","partner_category_id":"1","phone_number":"","website_url":"http:\/\/www.dishomaha.com\/","image":"","published":"1","priority":"0","ordering":"81","featured_partner":"0","category":"Towns","locations":[{"id":"53","partner_id":"48","street":"","city":"Dish Omaha","state":"NE","country":"USA","zip":"68132","latitude":"41.262546299999997","longitude":"-96.001767400000006","map_zoom":"8","partner":"DishOmaha"}]},
{"id":"49","name":"Coast 360","creator_id":"12","itunes_app_id":"409361851","facebook_app_id":"346995245338206","android_app_id":"","partner_category_id":"1","phone_number":"","website_url":"http:\/\/coast360.mobi\/","image":"","published":"1","priority":"0","ordering":"80","featured_partner":"0","category":"Towns","locations":[{"id":"54","partner_id":"49","street":"","city":"Gulf Shores","state":"AL","country":"USA","zip":"36542","latitude":"30.246036100000001","longitude":"-87.700819299999978","map_zoom":"8","partner":"Coast 360"}]},
{"id":"50","name":"pring Break PCB","creator_id":"12","itunes_app_id":"401162954","facebook_app_id":"346995245338206","android_app_id":"","partner_category_id":"1","phone_number":"","website_url":"http:\/\/springbreakpanamacitybeachfl.com","image":"","published":"1","priority":"0","ordering":"79","featured_partner":"0","category":"Towns","locations":[]},
{"id":"52","name":"BuckheadHot","creator_id":"12","itunes_app_id":"398347012","facebook_app_id":"346995245338206","android_app_id":"","partner_category_id":"1","phone_number":"","website_url":"http:\/\/buckheadhot.com\/","image":"","published":"1","priority":"0","ordering":"77","featured_partner":"0","category":"Towns","locations":[{"id":"56","partner_id":"52","street":"","city":"Buckhead","state":"GA","country":"USA","zip":"USGA0080","latitude":"33.839440000000003","longitude":"-84.379439999999988","map_zoom":"8","partner":"BuckheadHot"}]},
{"id":"53","name":"T-Town Today","creator_id":"12","itunes_app_id":"394467141","facebook_app_id":"346995245338206","android_app_id":"","partner_category_id":"1","phone_number":"","website_url":"http:\/\/ttowntoday.com\/","image":"","published":"1","priority":"0","ordering":"76","featured_partner":"0","category":"Towns","locations":[{"id":"57","partner_id":"53","street":"","city":"Tuscaloosa","state":"AL","country":"USA","zip":"USAL0542","latitude":"33.209840700000001","longitude":"-87.569173499999977","map_zoom":"8","partner":"T-Town Today"}]},
{"id":"54","name":"All in Tunica","creator_id":"12","itunes_app_id":"437577759","facebook_app_id":"346995245338206","android_app_id":"","partner_category_id":"1","phone_number":"","website_url":"http:\/\/allintunica.com\/","image":"","published":"1","priority":"0","ordering":"75","featured_partner":"0","category":"Towns","locations":[{"id":"58","partner_id":"54","street":"","city":"Tunica","state":"MS","country":"USA","zip":"38676","latitude":"34.684545499999999","longitude":"-90.382876899999985","map_zoom":"8","partner":"All in Tunica"}]},
{"id":"55","name":"Cintucky Bridges - Cincinnati","creator_id":"12","itunes_app_id":"434626898","facebook_app_id":"346995245338206","android_app_id":"","partner_category_id":"1","phone_number":"","website_url":"http:\/\/cintuckybridges.com\/","image":"","published":"1","priority":"0","ordering":"74","featured_partner":"0","category":"Towns","locations":[{"id":"59","partner_id":"55","street":"","city":"Cincinnati","state":"OH","country":"USA","zip":"45202","latitude":"39.103197100000003","longitude":"-84.506488100000013","map_zoom":"8","partner":"Cintucky Bridges - Cincinnati"}]},
{"id":"56","name":"Huntington Beach","creator_id":"12","itunes_app_id":"433468849","facebook_app_id":"346995245338206","android_app_id":"","partner_category_id":"1","phone_number":"","website_url":"http:\/\/huntingtonbeachshines.com\/","image":"","published":"1","priority":"0","ordering":"73","featured_partner":"0","category":"Towns","locations":[{"id":"60","partner_id":"56","street":"","city":"Huntington Beach","state":"CA","country":"USA","zip":"92648","latitude":"33.678196300000003","longitude":"-118.012753400000008","map_zoom":"8","partner":"Huntington Beach"}]},
{"id":"57","name":"Charleston","creator_id":"12","itunes_app_id":"433618017","facebook_app_id":"346995245338206","android_app_id":"","partner_category_id":"1","phone_number":"","website_url":"http:\/\/www.charlestonshines.com\/","image":"","published":"1","priority":"0","ordering":"72","featured_partner":"0","category":"Towns","locations":[{"id":"61","partner_id":"57","street":"","city":"Charleston","state":"SC","country":"USA","zip":"29401","latitude":"32.779143200000000","longitude":"-79.924866899999984","map_zoom":"8","partner":"Charleston"}]},
{"id":"58","name":"Dutchess","creator_id":"12","itunes_app_id":"432916292","facebook_app_id":"346995245338206","android_app_id":"","partner_category_id":"1","phone_number":"","website_url":"http:\/\/dutchessbuzz.com\/","image":"","published":"1","priority":"0","ordering":"71","featured_partner":"0","category":"Towns","locations":[{"id":"62","partner_id":"58","street":"","city":"Dutchess County","state":"NY","country":"USA","zip":"12603","latitude":"41.698370199999999","longitude":"-73.865429500000005","map_zoom":"8","partner":"Dutchess"}]},
{"id":"59","name":"Hello Sherwood Park","creator_id":"12","itunes_app_id":"425819671","facebook_app_id":"346995245338206","android_app_id":"","partner_category_id":"1","phone_number":"","website_url":"http:\/\/www.hellosherwoodpark.com\/","image":"","published":"1","priority":"0","ordering":"70","featured_partner":"0","category":"Towns","locations":[{"id":"63","partner_id":"59","street":"","city":"Sherwood Park","state":"AB","country":"CA","zip":"CAXX2262","latitude":"53.523319000000008","longitude":"-113.308756000000017","map_zoom":"8","partner":"Hello Sherwood Park"}]},
{"id":"60","name":"GoJoCo","creator_id":"12","itunes_app_id":"425369976","facebook_app_id":"346995245338206","android_app_id":"","partner_category_id":"1","phone_number":"","website_url":"http:\/\/gojoco.com\/","image":"","published":"1","priority":"0","ordering":"69","featured_partner":"0","category":"Towns","locations":[{"id":"64","partner_id":"60","street":"","city":"Clyton","state":"NC","country":"USA","zip":"27520","latitude":"-25.363882000000000","longitude":"131.044922000000042","map_zoom":"8","partner":"GoJoCo"}]},
{"id":"61","name":"Decatur","creator_id":"12","itunes_app_id":"427573910","facebook_app_id":"346995245338206","android_app_id":"","partner_category_id":"1","phone_number":"","website_url":"http:\/\/decaturmobile.com\/","image":"","published":"1","priority":"0","ordering":"68","featured_partner":"0","category":"Towns","locations":[{"id":"65","partner_id":"61","street":"","city":"Decatur","state":"AL","country":"USA","zip":"35603","latitude":"34.605925300000003","longitude":"-86.983341699999983","map_zoom":"8","partner":"Decatur"}]},
{"id":"62","name":"Cleveland FFD","creator_id":"12","itunes_app_id":"426705581","facebook_app_id":"346995245338206","android_app_id":"","partner_category_id":"1","phone_number":"","website_url":"http:\/\/clevelandffd.com\/","image":"","published":"1","priority":"0","ordering":"67","featured_partner":"0","category":"Towns","locations":[{"id":"66","partner_id":"62","street":"","city":"Solon","state":"OH","country":"USA","zip":"44139","latitude":"41.389776400000002","longitude":"-81.441225900000006","map_zoom":"8","partner":"Cleveland FFD"}]},
{"id":"63","name":"Smoky Spots","creator_id":"12","itunes_app_id":"426954490","facebook_app_id":"346995245338206","android_app_id":"","partner_category_id":"1","phone_number":"","website_url":"http:\/\/smokyspots.com\/","image":"","published":"1","priority":"0","ordering":"66","featured_partner":"0","category":"Towns","locations":[{"id":"67","partner_id":"63","street":"","city":"Sevierville","state":"TN","country":"USA","zip":"37862","latitude":"35.868145499999997","longitude":"-83.561835000000031","map_zoom":"8","partner":"Smoky Spots"}]},
{"id":"64","name":"Loudon County Happening","creator_id":"12","itunes_app_id":"474308519","facebook_app_id":"346995245338206","android_app_id":"","partner_category_id":"1","phone_number":"","website_url":"http:\/\/loudoncountyhappenings.com\/","image":"","published":"1","priority":"0","ordering":"65","featured_partner":"0","category":"Towns","locations":[{"id":"68","partner_id":"64","street":"","city":"Loudon","state":"TN","country":"USA","zip":"37774","latitude":"35.732854099999997","longitude":"-84.333811200000014","map_zoom":"8","partner":"Loudon County Happening"}]},
{"id":"65","name":"MyLTown","creator_id":"12","itunes_app_id":"458505064","facebook_app_id":"346995245338206","android_app_id":"","partner_category_id":"1","phone_number":"","website_url":"http:\/\/www.myltown.com\/","image":"","published":"1","priority":"0","ordering":"64","featured_partner":"0","category":"Towns","locations":[{"id":"69","partner_id":"65","street":"","city":"London","state":"KY","country":"USA","zip":"40744","latitude":"37.128977100000000","longitude":"-84.083264600000007","map_zoom":"8","partner":"MyLTown"}]},
{"id":"66","name":"DanvilleVibe","creator_id":"12","itunes_app_id":"456338901","facebook_app_id":"346995245338206","android_app_id":"","partner_category_id":"1","phone_number":"","website_url":"http:\/\/danvillevibe.com\/","image":"","published":"1","priority":"0","ordering":"63","featured_partner":"0","category":"Towns","locations":[{"id":"70","partner_id":"66","street":"","city":"Danville","state":"KY","country":"USA","zip":"40422","latitude":"37.645632900000003","longitude":"-84.772170200000005","map_zoom":"8","partner":"DanvilleVibe"}]},
{"id":"67","name":"Daytona Day","creator_id":"12","itunes_app_id":"454188301","facebook_app_id":"346995245338206","android_app_id":"","partner_category_id":"1","phone_number":"","website_url":"http:\/\/daytonaday.com\/","image":"","published":"1","priority":"0","ordering":"62","featured_partner":"0","category":"Towns","locations":[{"id":"71","partner_id":"67","street":"","city":"Daytona Beach","state":"FL","country":"USA","zip":"32114","latitude":"29.198795700000002","longitude":"-81.042342899999994","map_zoom":"8","partner":"Daytona Day"}]},
{"id":"68","name":"Montauk Buzz","creator_id":"12","itunes_app_id":"447503434","facebook_app_id":"346995245338206","android_app_id":"","partner_category_id":"1","phone_number":"","website_url":"http:\/\/montaukbuzz.com\/","image":"","published":"1","priority":"0","ordering":"61","featured_partner":"0","category":"Towns","locations":[{"id":"72","partner_id":"68","street":"","city":"Montauk","state":"NY","country":"USA","zip":"11954","latitude":"41.035935299999998","longitude":"-71.954514599999982","map_zoom":"8","partner":"Montauk Buzz"}]},
{"id":"69","name":"Chatt360","creator_id":"12","itunes_app_id":"447596146","facebook_app_id":"346995245338206","android_app_id":"","partner_category_id":"1","phone_number":"","website_url":"http:\/\/chatt360.com\/","image":"","published":"1","priority":"0","ordering":"60","featured_partner":"0","category":"Towns","locations":[{"id":"73","partner_id":"69","street":"","city":"Chattanooga","state":"TN","country":"USA","zip":"37408","latitude":"35.028293400000003","longitude":"-85.311036800000011","map_zoom":"8","partner":"Chatt360"}]},
{"id":"70","name":"West Hollywood","creator_id":"12","itunes_app_id":"425179976","facebook_app_id":"346995245338206","android_app_id":"","partner_category_id":"1","phone_number":"","website_url":"http:\/\/westhollywoodcityguide.com\/","image":"","published":"1","priority":"0","ordering":"59","featured_partner":"0","category":"Towns","locations":[{"id":"74","partner_id":"70","street":"","city":"West Hollywood","state":"CA","country":"USA","zip":"90069","latitude":"34.093160300000001","longitude":"-118.378334699999982","map_zoom":"8","partner":"West Hollywood"}]},
{"id":"71","name":"GoFairfax","creator_id":"12","itunes_app_id":"448716484","facebook_app_id":"346995245338206","android_app_id":"","partner_category_id":"1","phone_number":"","website_url":"http:\/\/www.goffx.com\/","image":"","published":"1","priority":"0","ordering":"58","featured_partner":"0","category":"Towns","locations":[{"id":"75","partner_id":"71","street":"","city":"Vienna","state":"VA","country":"USA","zip":"22182","latitude":"38.901222500000003","longitude":"-77.265260399999988","map_zoom":"8","partner":"GoFairfax"}]},
{"id":"72","name":"OxfordGuru","creator_id":"12","itunes_app_id":"420784428","facebook_app_id":"346995245338206","android_app_id":"","partner_category_id":"1","phone_number":"","website_url":"http:\/\/www.oxfordguru.com\/","image":"","published":"1","priority":"0","ordering":"57","featured_partner":"0","category":"Towns","locations":[{"id":"76","partner_id":"72","street":"","city":"Oxford","state":"MS","country":"USA","zip":"38655","latitude":"34.366495100000002","longitude":"-89.519248399999981","map_zoom":"8","partner":"OxfordGuru"}]},
{"id":"73","name":"GalvestonHot","creator_id":"12","itunes_app_id":"495956802","facebook_app_id":"346995245338206","android_app_id":"","partner_category_id":"1","phone_number":"","website_url":"http:\/\/www.galvestonhot.com\/","image":"","published":"1","priority":"0","ordering":"56","featured_partner":"0","category":"Towns","locations":[{"id":"77","partner_id":"73","street":"","city":"Galveston","state":"TX","country":"USA","zip":"77550","latitude":"29.434562600000000","longitude":"-94.681208599999991","map_zoom":"8","partner":"GalvestonHot"}]},
{"id":"75","name":"How2Hershey","creator_id":"12","itunes_app_id":"486383988","facebook_app_id":"346995245338206","android_app_id":"","partner_category_id":"1","phone_number":"","website_url":"http:\/\/www.howtohershey.com\/","image":"","published":"1","priority":"0","ordering":"54","featured_partner":"0","category":"Towns","locations":[{"id":"79","partner_id":"75","street":"","city":"Hershey","state":"PA","country":"USA","zip":"17033","latitude":"40.285923900000000","longitude":"-76.650246799999991","map_zoom":"8","partner":"How2Hershey"},{"id":"95","partner_id":"75","street":"","city":"Hershey","state":"PA","country":"USA","zip":"17033","latitude":"40.285923900000000","longitude":"-76.650246799999991","map_zoom":"8","partner":"How2Hershey"}]},
{"id":"76","name":"Dothan","creator_id":"12","itunes_app_id":"491060729","facebook_app_id":"346995245338206","android_app_id":"","partner_category_id":"1","phone_number":"","website_url":"http:\/\/www.dothanlife.com\/","image":"","published":"1","priority":"0","ordering":"53","featured_partner":"0","category":"Towns","locations":[{"id":"80","partner_id":"76","street":"","city":"Dothan","state":"AL","country":"USA","zip":"36303","latitude":"31.248372300000000","longitude":"-85.375624899999991","map_zoom":"8","partner":"Dothan"}]},
{"id":"79","name":"SD ShoreLife","creator_id":"12","itunes_app_id":"","facebook_app_id":"490144457","android_app_id":"","partner_category_id":"1","phone_number":"","website_url":"http:\/\/diegoshorelife.com\/","image":"","published":"1","priority":"0","ordering":"50","featured_partner":"0","category":"Towns","locations":[{"id":"83","partner_id":"79","street":"","city":"San Diego","state":"CA","country":"USA","zip":"92109","latitude":"32.792094800000001","longitude":"-117.232336700000019","map_zoom":"8","partner":"SD ShoreLife"}]},
{"id":"81","name":"Gouda Guide","creator_id":"12","itunes_app_id":"","facebook_app_id":"346995245338206","android_app_id":"com.goudaguide","partner_category_id":"1","phone_number":"","website_url":"http:\/\/www.goudaguide.nl","image":"\/media\/com_townwizard\/images\/partners\/4f732fb9dc483.png","published":"1","priority":"0","ordering":"48","featured_partner":"0","category":"Towns","locations":[{"id":"86","partner_id":"81","street":"","city":"Gouda","state":"","country":"Netherlands","zip":"","latitude":"52.013858900000002","longitude":"4.709789999999998","map_zoom":"8","partner":"Gouda Guide"}]},
{"id":"82","name":"Erie Buzz","creator_id":"12","itunes_app_id":"","facebook_app_id":"346995245338206","android_app_id":"","partner_category_id":"1","phone_number":"","website_url":"http:\/\/www.eriebuzzonthebay.com\/","image":"\/media\/com_townwizard\/images\/partners\/4f749a6d977d5.png","published":"1","priority":"0","ordering":"47","featured_partner":"0","category":"Towns","locations":[{"id":"87","partner_id":"82","street":"","city":"Erie","state":"PA","country":"","zip":"16501","latitude":"42.118832200000000","longitude":"-80.093997800000011","map_zoom":"8","partner":"Erie Buzz"}]},
{"id":"83","name":"G. Rap. City","creator_id":"12","itunes_app_id":"435629024","facebook_app_id":"346995245338206","android_app_id":"","partner_category_id":"1","phone_number":"","website_url":"http:\/\/www.grapcity.com","image":"","published":"1","priority":"0","ordering":"46","featured_partner":"0","category":"Towns","locations":[{"id":"88","partner_id":"83","street":"","city":"Grand Rapids","state":"Michigan","country":"","zip":"49503","latitude":"42.961668899999999","longitude":"-85.658899899999994","map_zoom":"8","partner":"G. Rap. City"}]},
{"id":"84","name":"Townwizardtest English","creator_id":"63","itunes_app_id":"","facebook_app_id":"346995245338206","android_app_id":"","partner_category_id":"1","phone_number":"","website_url":"http:\/\/www.townwizardtest.com\/","image":"\/media\/com_townwizard\/images\/partners\/5028ff513a6d1.jpg","published":"1","priority":"0","ordering":"45","featured_partner":"0","category":"Towns","locations":[{"id":"89","partner_id":"84","street":"","city":"Moultrie","state":"GA","country":"United States","zip":"31768","latitude":"31.179908000000001","longitude":"-83.789063100000021","map_zoom":"8","partner":"Townwizardtest English"}]},
{"id":"85","name":"EverythingWNY","creator_id":"63","itunes_app_id":"524840939","facebook_app_id":"346995245338206","android_app_id":"","partner_category_id":"1","phone_number":"","website_url":"http:\/\/www.everythingwny.com\/","image":"\/media\/com_townwizard\/images\/partners\/4f8857f2d54ce.png","published":"1","priority":"0","ordering":"44","featured_partner":"0","category":"Towns","locations":[{"id":"90","partner_id":"85","street":"","city":"Buffalo,","state":"NY,","country":"United States","zip":"14202","latitude":"42.894316099999998","longitude":"-78.873649300000011","map_zoom":"8","partner":"EverythingWNY"}]},
{"id":"86","name":"The Hague Midtown","creator_id":"63","itunes_app_id":"","facebook_app_id":"346995245338206","android_app_id":"com.thehaguemidtown.townwizard","partner_category_id":"1","phone_number":"","website_url":"http:\/\/thehaguemidtown.townwizard.com\/","image":"\/media\/com_townwizard\/images\/partners\/4f99a7427b892.png","published":"1","priority":"0","ordering":"43","featured_partner":"0","category":"Towns","locations":[{"id":"91","partner_id":"86","street":"","city":"Den Haag","state":"","country":"NL","zip":"","latitude":"52.070497799999998","longitude":"4.300699900000041","map_zoom":"8","partner":"The Hague Midtown"}]},
{"id":"87","name":"JaxBeachVibe","creator_id":"12","itunes_app_id":"","facebook_app_id":"346995245338206","android_app_id":"","partner_category_id":"1","phone_number":"","website_url":"http:\/\/www.jaxbeachvibe.com","image":"\/media\/com_townwizard\/images\/partners\/4f84b388cc9bf.png","published":"1","priority":"0","ordering":"42","featured_partner":"0","category":"Towns","locations":[{"id":"92","partner_id":"87","street":"","city":"Jacksonville","state":"Florida","country":"","zip":"32250","latitude":"30.274594400000002","longitude":"-81.411414199999967","map_zoom":"8","partner":"JaxBeachVibe"}]},
{"id":"89","name":"Yogiinfo Spanish","creator_id":"63","itunes_app_id":"","facebook_app_id":"346995245338206","android_app_id":"","partner_category_id":"1","phone_number":"9998292661","website_url":"http:\/\/v2spanish.yogiinfo.com\/","image":"","published":"1","priority":"0","ordering":"40","featured_partner":"0","category":"Towns","locations":[{"id":"94","partner_id":"89","street":"B\/604 Royal Chinmay Tower","city":"Collingswood","state":"NJ","country":"USA","zip":"08107","latitude":"39.918168600000001","longitude":"-75.071283999999991","map_zoom":"8","partner":"Yogiinfo Spanish"}]},
{"id":"90","name":"DiscoverSurrey","creator_id":"12","itunes_app_id":"","facebook_app_id":"346995245338206","android_app_id":"com.DiscoverCloverdale","partner_category_id":"1","phone_number":"","website_url":"http:\/\/www.discovercloverdale.com\/","image":"\/media\/com_townwizard\/images\/partners\/4f99b3457e0d2.png","published":"1","priority":"0","ordering":"39","featured_partner":"0","category":"Towns","locations":[{"id":"96","partner_id":"90","street":"","city":"surrey","state":"","country":"CA","zip":"V4B 1C3","latitude":"49.025308500000001","longitude":"-122.802961999999980","map_zoom":"8","partner":"DiscoverSurrey"}]},
{"id":"91","name":"MyKnoxzilla","creator_id":"63","itunes_app_id":"","facebook_app_id":"346995245338206","android_app_id":"","partner_category_id":"1","phone_number":"","website_url":"http:\/\/myknoxzillaguide.com\/","image":"\/media\/com_townwizard\/images\/partners\/4f99c4f711f4f.png","published":"1","priority":"0","ordering":"38","featured_partner":"0","category":"Towns","locations":[{"id":"97","partner_id":"91","street":"","city":"knoxville","state":"TN","country":"","zip":"37915","latitude":"35.972333900000002","longitude":"-83.895004200000017","map_zoom":"8","partner":"MyKnoxzilla"}]},
{"id":"93","name":"NavigatingNewark","creator_id":"63","itunes_app_id":"","facebook_app_id":"346995245338206","android_app_id":"","partner_category_id":"1","phone_number":"","website_url":"http:\/\/www.navigatingnewark.com\/","image":"\/media\/com_townwizard\/images\/partners\/4f9add1dea538.png","published":"1","priority":"0","ordering":"36","featured_partner":"0","category":"Towns","locations":[{"id":"99","partner_id":"93","street":"","city":"Newark","state":"Ohio","country":"","zip":"43055","latitude":"40.058120500000001","longitude":"-82.401264200000014","map_zoom":"8","partner":"NavigatingNewark"}]},
{"id":"95","name":"Blue Ridge","creator_id":"63","itunes_app_id":"","facebook_app_id":"346995245338206","android_app_id":"com.allaboardblueridge","partner_category_id":"1","phone_number":"","website_url":"http:\/\/blueridge.townwizard.com\/","image":"\/media\/com_townwizard\/images\/partners\/4fa94607966df.png","published":"1","priority":"0","ordering":"34","featured_partner":"0","category":"Towns","locations":[{"id":"100","partner_id":"95","street":"","city":"Blue Ridge","state":"Georgia","country":"","zip":"30513","latitude":"34.863971900000003","longitude":"-84.324086999999963","map_zoom":"8","partner":"Blue Ridge"}]},
{"id":"96","name":"Columbus Social","creator_id":"63","itunes_app_id":"","facebook_app_id":"346995245338206","android_app_id":"com.columbussoc","partner_category_id":"1","phone_number":"","website_url":"http:\/\/www.columbussoc.com\/","image":"\/media\/com_townwizard\/images\/partners\/5016d18fab9e2.png","published":"1","priority":"0","ordering":"33","featured_partner":"0","category":"Towns","locations":[{"id":"101","partner_id":"96","street":"","city":"Columbus","state":"Ohio","country":"","zip":"43201","latitude":"39.992982099999999","longitude":"-83.001220999999987","map_zoom":"8","partner":"Columbus Social"}]},
{"id":"97","name":"St. Paul Spot","creator_id":"63","itunes_app_id":"394002325","facebook_app_id":"346995245338206","android_app_id":"","partner_category_id":"1","phone_number":"","website_url":"http:\/\/www.stpaulspot.com","image":"","published":"1","priority":"0","ordering":"32","featured_partner":"0","category":"Towns","locations":[{"id":"102","partner_id":"97","street":"","city":"Saint Paul","state":"Minnesota","country":"","zip":"55012","latitude":"44.951664299999997","longitude":"-93.162906299999975","map_zoom":"8","partner":"St. Paul Spot"}]},
{"id":"98","name":"iLuvDecatur","creator_id":"63","itunes_app_id":"","facebook_app_id":"346995245338206","android_app_id":"","partner_category_id":"1","phone_number":"","website_url":"http:\/\/www.iluvdecatur.com","image":"\/media\/com_townwizard\/images\/partners\/4fd8ec4e6ae52.png","published":"1","priority":"0","ordering":"31","featured_partner":"0","category":"Towns","locations":[{"id":"103","partner_id":"98","street":"","city":"Decatur","state":"Georgia","country":"","zip":"30030","latitude":"33.774827500000001","longitude":"-84.296312300000011","map_zoom":"8","partner":"iLuvDecatur"}]},
{"id":"99","name":"GP Smart Guide","creator_id":"131","itunes_app_id":"","facebook_app_id":"346995245338206","android_app_id":"","partner_category_id":"1","phone_number":"","website_url":"http:\/\/grandprairie.townwizard.com","image":"\/media\/com_townwizard\/images\/partners\/50113fd2581e2.png","published":"1","priority":"0","ordering":"30","featured_partner":"0","category":"Towns","locations":[{"id":"104","partner_id":"99","street":"","city":"Grande Prairie","state":"Alberta","country":"Canada","zip":"T8V5J4","latitude":"55.152597800000002","longitude":"-118.778169800000001","map_zoom":"5","partner":"GP Smart Guide"}]},
{"id":"100","name":"TW TownWizard","creator_id":"63","itunes_app_id":"","facebook_app_id":"346995245338206","android_app_id":"","partner_category_id":"1","phone_number":"","website_url":"http:\/\/thewoodlands.townwizard.com\/","image":"\/media\/com_townwizard\/images\/partners\/5034fe05a82e6.png","published":"1","priority":"0","ordering":"29","featured_partner":"0","category":"Towns","locations":[{"id":"105","partner_id":"100","street":"","city":"The Woodlands","state":"TX","country":"United States","zip":"77380","latitude":"30.126195200000002","longitude":"-95.467296199999964","map_zoom":"8","partner":"TW TownWizard"},{"id":"107","partner_id":"100","street":"","city":"The Woodlands","state":"TX","country":"USA","zip":"77380","latitude":"30.126195200000002","longitude":"-95.467296199999964","map_zoom":"8","partner":"TW TownWizard"}]},
{"id":"101","name":"HubCity360","creator_id":"131","itunes_app_id":"","facebook_app_id":"346995245338206","android_app_id":"","partner_category_id":"1","phone_number":"","website_url":"http:\/\/www.hubcity360.com","image":"\/media\/com_townwizard\/images\/partners\/4ffd285c31c05.png","published":"1","priority":"0","ordering":"28","featured_partner":"0","category":"Towns","locations":[{"id":"106","partner_id":"101","street":"","city":"","state":"Cookeville","country":"United States","zip":"38506","latitude":"36.162838999999998","longitude":"-85.501642300000015","map_zoom":"8","partner":"HubCity360"}]},
{"id":"102","name":"iRep LBC","creator_id":"131","itunes_app_id":"","facebook_app_id":"346995245338206","android_app_id":"","partner_category_id":"1","phone_number":"","website_url":"http:\/\/www.ireplbc.com\/","image":"\/media\/com_townwizard\/images\/partners\/501fef83e42de.jpg","published":"1","priority":"0","ordering":"27","featured_partner":"0","category":"Towns","locations":[{"id":"108","partner_id":"102","street":"","city":"Long Beach","state":"CA","country":"USA","zip":"90803","latitude":"33.752303499999996","longitude":"-118.129823400000021","map_zoom":"8","partner":"iRep LBC"}]},
{"id":"103","name":"Nashville Wow","creator_id":"131","itunes_app_id":"","facebook_app_id":"346995245338206","android_app_id":"","partner_category_id":"1","phone_number":"","website_url":"http:\/\/www.nashvillewow.com\/","image":"\/media\/com_townwizard\/images\/partners\/500b8bdeb138e.png","published":"1","priority":"0","ordering":"26","featured_partner":"0","category":"Towns","locations":[{"id":"109","partner_id":"103","street":"","city":"Nashville","state":"TN","country":"USA","zip":"37201","latitude":"36.172488500000000","longitude":"-86.780596100000025","map_zoom":"8","partner":"Nashville Wow"}]},
{"id":"104","name":"SL Merida","creator_id":"131","itunes_app_id":"","facebook_app_id":"346995245338206","android_app_id":"","partner_category_id":"1","phone_number":"","website_url":"http:\/\/www.sociallifemerida.com","image":"\/media\/com_townwizard\/images\/partners\/501033742d623.png","published":"1","priority":"0","ordering":"25","featured_partner":"0","category":"Towns","locations":[{"id":"110","partner_id":"104","street":"","city":"Merida","state":"","country":"Mexico","zip":"97100","latitude":"20.993436400000000","longitude":"-89.609860299999980","map_zoom":"8","partner":"SL Merida"}]},
{"id":"105","name":"Carrabelle Waves","creator_id":"131","itunes_app_id":"","facebook_app_id":"346995245338206","android_app_id":"","partner_category_id":"1","phone_number":"","website_url":"http:\/\/www.carrabellewaves.com","image":"\/media\/com_townwizard\/images\/partners\/504f5b5e80e38.png","published":"1","priority":"0","ordering":"24","featured_partner":"0","category":"Towns","locations":[{"id":"111","partner_id":"105","street":"","city":"Carrabelle","state":"Florida","country":"USA","zip":"32322","latitude":"29.853264499999991","longitude":"-84.664348000000018","map_zoom":"8","partner":"Carrabelle Waves"}]},
{"id":"106","name":"Yogiinfo English","creator_id":"63","itunes_app_id":"","facebook_app_id":"346995245338206","android_app_id":"","partner_category_id":"1","phone_number":"9998292661","website_url":"http:\/\/v2.yogiinfo.com\/","image":"\/media\/com_townwizard\/images\/partners\/50290254b97cd.jpg","published":"1","priority":"0","ordering":"23","featured_partner":"0","category":"Towns","locations":[{"id":"112","partner_id":"106","street":"1150 Brand Lane","city":"Stafford","state":"TX","country":"USA","zip":"77477","latitude":"29.607520000000001","longitude":"-95.577844499999969","map_zoom":"14","partner":"Yogiinfo English"}]},
{"id":"107","name":"Townwizardtest Spanish","creator_id":"63","itunes_app_id":"","facebook_app_id":"346995245338206","android_app_id":"","partner_category_id":"1","phone_number":"","website_url":"http:\/\/www.townwizardtestspanish.com\/","image":"\/media\/com_townwizard\/images\/partners\/5029003cebb44.jpg","published":"1","priority":"0","ordering":"22","featured_partner":"0","category":"Towns","locations":[{"id":"113","partner_id":"107","street":"1150 Brandlane","city":"Stafford","state":"TX","country":"","zip":"77477","latitude":"29.607520000000001","longitude":"-95.577844499999969","map_zoom":"15","partner":"Townwizardtest Spanish"}]},
{"id":"109","name":"BelicosoCigar","creator_id":"131","itunes_app_id":"","facebook_app_id":"346995245338206","android_app_id":"","partner_category_id":"1","phone_number":"","website_url":"http:\/\/www.belicosocigarcompany.com\/","image":"\/media\/com_townwizard\/images\/partners\/5034e801e7061.png","published":"1","priority":"0","ordering":"20","featured_partner":"0","category":"Towns","locations":[{"id":"115","partner_id":"109","street":"","city":"Birmingham","state":"Alabama","country":"","zip":"35242","latitude":"33.416552400000000","longitude":"-86.681252999999970","map_zoom":"8","partner":"BelicosoCigar"}]},
{"id":"110","name":"Lima360","creator_id":"131","itunes_app_id":"","facebook_app_id":"346995245338206","android_app_id":"","partner_category_id":"1","phone_number":"","website_url":"http:\/\/www.guialima360.com","image":"\/media\/com_townwizard\/images\/partners\/50354c793c4d4.png","published":"1","priority":"0","ordering":"19","featured_partner":"0","category":"Towns","locations":[{"id":"116","partner_id":"110","street":"","city":"Lima","state":"","country":"Peru","zip":"LIMA","latitude":"-12.047815800000000","longitude":"-77.062202800000023","map_zoom":"8","partner":"Lima360"}]},
{"id":"111","name":"BruneiShines","creator_id":"131","itunes_app_id":"","facebook_app_id":"346995245338206","android_app_id":"","partner_category_id":"1","phone_number":"","website_url":"http:\/\/www.bruneishines.com\/","image":"\/media\/com_townwizard\/images\/partners\/503e396e29c96.png","published":"1","priority":"0","ordering":"18","featured_partner":"0","category":"Towns","locations":[{"id":"117","partner_id":"111","street":"","city":"Kampong Kilanas","state":"","country":"Brunei","zip":"","latitude":"4.872238200000000","longitude":"114.844250200000033","map_zoom":"8","partner":"BruneiShines"}]},
{"id":"112","name":"Ocean Springs","creator_id":"131","itunes_app_id":"","facebook_app_id":"346995245338206","android_app_id":"","partner_category_id":"1","phone_number":"","website_url":"http:\/\/www.oceanspringsbiloxiliving.com","image":"\/media\/com_townwizard\/images\/partners\/503f6ed3a0cc0.png","published":"1","priority":"0","ordering":"17","featured_partner":"0","category":"Towns","locations":[{"id":"118","partner_id":"112","street":"","city":"Biloxi","state":"MS","country":"USA","zip":"39530","latitude":"30.396031799999999","longitude":"-88.885307799999964","map_zoom":"8","partner":"Ocean Springs"}]},
{"id":"114","name":"Oakland","creator_id":"131","itunes_app_id":"","facebook_app_id":"346995245338206","android_app_id":"","partner_category_id":"1","phone_number":"","website_url":"http:\/\/www.oakland-in-motion.com\/","image":"\/media\/com_townwizard\/images\/partners\/5040c7ea97947.png","published":"1","priority":"0","ordering":"15","featured_partner":"0","category":"Towns","locations":[{"id":"120","partner_id":"114","street":"","city":"Oakland","state":"","country":"","zip":"94612","latitude":"37.811315899999997","longitude":"-122.268224499999974","map_zoom":"8","partner":"Oakland"}]},
{"id":"115","name":"Lakeland Zing","creator_id":"63","itunes_app_id":"","facebook_app_id":"171959962929178","android_app_id":"","partner_category_id":"1","phone_number":"","website_url":"http:\/\/www.lakelandzing.com\/","image":"\/media\/com_townwizard\/images\/partners\/5040bd5064dea.png","published":"1","priority":"0","ordering":"14","featured_partner":"0","category":"Towns","locations":[{"id":"121","partner_id":"115","street":"","city":"","state":"","country":"","zip":"33801","latitude":"28.048611099999999","longitude":"-81.898908000000006","map_zoom":"8","partner":"Lakeland Zing"}]},
{"id":"116","name":"Gooi Alive","creator_id":"131","itunes_app_id":"","facebook_app_id":"346995245338206","android_app_id":"","partner_category_id":"1","phone_number":"","website_url":"http:\/\/gooi.townwizard.com","image":"\/media\/com_townwizard\/images\/partners\/5050b42e0ec6e.png","published":"1","priority":"0","ordering":"13","featured_partner":"0","category":"Towns","locations":[{"id":"122","partner_id":"116","street":"","city":"","state":"","country":"","zip":"1251GE","latitude":"52.247526399999998","longitude":"5.211225499999955","map_zoom":"8","partner":"Gooi Alive"}]},
{"id":"117","name":"Downtown","creator_id":"131","itunes_app_id":"","facebook_app_id":"346995245338206","android_app_id":"","partner_category_id":"1","phone_number":"","website_url":"http:\/\/www.downtownpcola.com","image":"\/media\/com_townwizard\/images\/partners\/5050f81bc67d6.png","published":"1","priority":"0","ordering":"12","featured_partner":"0","category":"Towns","locations":[{"id":"123","partner_id":"117","street":"","city":"Pensacola","state":"","country":"","zip":"","latitude":"30.421308999999990","longitude":"-87.216914900000006","map_zoom":"8","partner":"Downtown"}]},
{"id":"118","name":"Brooklynite","creator_id":"63","itunes_app_id":"","facebook_app_id":"346995245338206","android_app_id":"","partner_category_id":"1","phone_number":"917-771-4541","website_url":"http:\/\/brooklyn.townwizard.com\/","image":"\/media\/com_townwizard\/images\/partners\/50523cca54c25.png","published":"1","priority":"0","ordering":"11","featured_partner":"0","category":"Towns","locations":[{"id":"124","partner_id":"118","street":"","city":"Brooklyn","state":"","country":"","zip":"11225","latitude":"40.664827799999998","longitude":"-73.956555100000003","map_zoom":"8","partner":"Brooklynite"}]},
{"id":"119","name":"Scheveningen Shines","creator_id":"131","itunes_app_id":"","facebook_app_id":"346995245338206","android_app_id":"","partner_category_id":"1","phone_number":"","website_url":"http:\/\/scheveningen.townwizard.com","image":"\/media\/com_townwizard\/images\/partners\/50522ae7bffb7.png","published":"1","priority":"0","ordering":"10","featured_partner":"0","category":"Towns","locations":[{"id":"125","partner_id":"119","street":"","city":"Scheveningen","state":"","country":"","zip":"2586EA","latitude":"52.108677299999997","longitude":"4.275568399999997","map_zoom":"10","partner":"Scheveningen Shines"}]},
{"id":"120","name":"KTownATL","creator_id":"63","itunes_app_id":"","facebook_app_id":"346995245338206","android_app_id":"","partner_category_id":"1","phone_number":"","website_url":"http:\/\/duluth.townwizard.com\/","image":"\/media\/com_townwizard\/images\/partners\/50abb8030c078.png","published":"1","priority":"0","ordering":"9","featured_partner":"0","category":"Towns","locations":[{"id":"126","partner_id":"120","street":"","city":"","state":"","country":"","zip":"30096","latitude":"33.981213099999998","longitude":"-84.154065899999978","map_zoom":"9","partner":"KTownATL"}]},
{"id":"121","name":"Nantucket Buzz","creator_id":"131","itunes_app_id":"","facebook_app_id":"346995245338206","android_app_id":"","partner_category_id":"1","phone_number":"","website_url":"http:\/\/nantucket.townwizard.com","image":"\/media\/com_townwizard\/images\/partners\/50660fcde239f.png","published":"1","priority":"0","ordering":"8","featured_partner":"0","category":"Towns","locations":[{"id":"127","partner_id":"121","street":"","city":"","state":"","country":"","zip":"02554","latitude":"41.270811500000001","longitude":"-70.026495199999999","map_zoom":"9","partner":"Nantucket Buzz"}]},
{"id":"122","name":"NE Atlanta","creator_id":"63","itunes_app_id":"","facebook_app_id":"346995245338206","android_app_id":"","partner_category_id":"1","phone_number":"","website_url":"http:\/\/northeastatl.townwizard.com\/","image":"\/media\/com_townwizard\/images\/partners\/5058816475055.png","published":"1","priority":"0","ordering":"7","featured_partner":"0","category":"Towns","locations":[{"id":"128","partner_id":"122","street":"","city":"","state":"","country":"","zip":"30518","latitude":"34.119931800000003","longitude":"-84.037889399999983","map_zoom":"8","partner":"NE Atlanta"}]},
{"id":"123","name":"Amsterdam By Dark","creator_id":"131","itunes_app_id":"","facebook_app_id":"346995245338206","android_app_id":"","partner_category_id":"1","phone_number":"","website_url":"http:\/\/amsterdam.townwizard.com","image":"\/media\/com_townwizard\/images\/partners\/50745ae411117.png","published":"1","priority":"0","ordering":"6","featured_partner":"0","category":"Towns","locations":[{"id":"129","partner_id":"123","street":"","city":"","state":"","country":"","zip":"1012 AA","latitude":"52.379902100000002","longitude":"4.901104900000064","map_zoom":"8","partner":"Amsterdam By Dark"}]},
{"id":"124","name":"Garner","creator_id":"63","itunes_app_id":"","facebook_app_id":"346995245338206","android_app_id":"","partner_category_id":"1","phone_number":"","website_url":"http:\/\/www.letsgogarner.com","image":"\/media\/com_townwizard\/images\/partners\/507f15b4938bb.png","published":"1","priority":"0","ordering":"5","featured_partner":"0","category":"Towns","locations":[{"id":"130","partner_id":"124","street":"","city":"","state":"","country":"","zip":"27529","latitude":"35.654468399999999","longitude":"-78.588795099999970","map_zoom":"8","partner":"Garner"}]},
{"id":"125","name":"30Zip","creator_id":"63","itunes_app_id":"","facebook_app_id":"346995245338206","android_app_id":"","partner_category_id":"1","phone_number":"","website_url":"http:\/\/www.30zip.com","image":"\/media\/com_townwizard\/images\/partners\/50a3cdf3794b7.png","published":"1","priority":"0","ordering":"4","featured_partner":"0","category":"Towns","locations":[{"id":"131","partner_id":"125","street":"1150 Brand Lane","city":"Stafford","state":"TX","country":"USA","zip":"77477","latitude":"29.608333999999999","longitude":"-95.579003000000000","map_zoom":"8","partner":"30Zip"}]},
{"id":"126","name":"Louisville Vibes","creator_id":"131","itunes_app_id":"","facebook_app_id":"346995245338206","android_app_id":"","partner_category_id":"1","phone_number":"","website_url":"http:\/\/louisville.townwizard.com","image":"\/media\/com_townwizard\/images\/partners\/50bcfbe454ab9.png","published":"1","priority":"0","ordering":"3","featured_partner":"0","category":"Towns","locations":[{"id":"132","partner_id":"126","street":"Spruce St","city":"Louisville","state":"Colorado","country":"United States","zip":"80027","latitude":"39.977759100000000","longitude":"-105.135188999999968","map_zoom":"8","partner":"Louisville Vibes"}]},
{"id":"127","name":"Charlotte Spotlight","creator_id":"131","itunes_app_id":"","facebook_app_id":"346995245338206","android_app_id":"","partner_category_id":"1","phone_number":"","website_url":"http:\/\/charlotte.townwizard.com","image":"\/media\/com_townwizard\/images\/partners\/50bf42acf0577.png","published":"1","priority":"0","ordering":"2","featured_partner":"0","category":"Towns","locations":[{"id":"133","partner_id":"127","street":"","city":"","state":"","country":"","zip":"28204","latitude":"35.215071399999999","longitude":"-80.829474699999992","map_zoom":"8","partner":"Charlotte Spotlight"}]},
{"id":"128","name":"Go Saint John","creator_id":"131","itunes_app_id":"","facebook_app_id":"346995245338206","android_app_id":"","partner_category_id":"1","phone_number":"506-609-1014","website_url":"http:\/\/gosaintjohn.com","image":"\/media\/com_townwizard\/images\/partners\/50c7297de522f.png","published":"1","priority":"0","ordering":"1","featured_partner":"0","category":"Towns","locations":[{"id":"134","partner_id":"128","street":"","city":"","state":"","country":"","zip":"E2L4Z6","latitude":"45.272955099999997","longitude":"-66.064108400000009","map_zoom":"8","partner":"Go Saint John"}]}
]